FID,the_geom,OBJECTID,ECF_Code,ECF_Name,Status,Type,AdminCode,Beds_Open,Beds_Plan,Open_Date,Partner,Lead_Donor,Latitude,Longitude,Accuracy,Updated,LabPresent,Country,Comment
gin_heal_pt_unmeer_ebolacarefacilities.1,POINT (-9.46558200499993 8.518240000000048),987,GIN_0011,Macenta,Open,ETU,GIN00800308,40,70,2014-12-05T11:35:26.172,FRENCH RED CROSS,,8.541,-9.471,WHO - GPS,2014-09-01T00:00:00,Yes,GIN,
gin_heal_pt_unmeer_ebolacarefacilities.2,POINT (-10.120963604999929 8.552846000000045),988,GIN_0010,Gueckedou,Open,ETU,GIN00800603,100,100,2014-12-05T11:35:26.773,MSF,,8.562,-10.133,WHO - GPS,2014-09-01T00:00:00,Yes,GIN,
gin_heal_pt_unmeer_ebolacarefacilities.3,POINT (-13.68319299999996 9.535421000000042),989,GIN_0001,Conakry Donka Hospital,Open,ETU,GIN00200101,60,60,2014-12-05T11:35:27.655,MSF,,9.535,-13.683,WHO - GPS,2014-09-01T00:00:00,Yes,GIN,
gin_heal_pt_unmeer_ebolacarefacilities.4,POINT (-13.420806149999976 9.730112226000074),990,GIN_0003,Coyah,Under Construction,ETU,GIN00500103,0,70,2014-12-01T00:00:00,Cuba?,,9.73,-13.421,Needs location verified,2014-09-01T00:00:00,No,GIN,
gin_heal_pt_unmeer_ebolacarefacilities.6,POINT (-9.003259372999935 9.274127150000027),992,GIN_0002,Kerouane,Under Construction,ETU,GIN00400203,0,50,2014-12-15T00:00:00,NONE,,9.274,-9.003,Needs location verified,2014-09-01T00:00:00,No,GIN,
gin_heal_pt_unmeer_ebolacarefacilities.9,POINT (-8.648371163999968 8.689988011000025),995,GIN_0009,Beyla,Under Construction,ETU,GIN00800101,0,70,2014-12-15T00:00:00,"PAM, Sécurité civile, l’ONG,WAHA",,8.69,-8.648,Needs location verified,2014-09-01T00:00:00,No,GIN,
gin_heal_pt_unmeer_ebolacarefacilities.7,POINT (-8.819621349999977 7.755827287000045),993,GIN_0007,Nzerekore,Open,ETU,GIN00400203,0,70,2014-12-01T00:00:00,ALIMA,,7.756,-8.82,Needs location verified,2014-09-01T00:00:00,No,GIN,
